City_ID,City,Country,Max Temp,Current Description,Lat,Lng,Hotel Name
0,mahebourg,MU,72.25,few clouds,-20.4081,57.7,Shandrani Beachcomber Resort & Spa
1,namibe,AO,71.8,few clouds,-15.1961,12.1522,Hotel Chik Chik Namibe
4,shache,CN,76.5,overcast clouds,38.4167,77.2406,Delong Hotel
25,puerto ayora,EC,75.54,few clouds,-0.7393,-90.3518,Finch Bay Galapagos Hotel
29,otukpo,NG,78.89,scattered clouds,7.1913,8.1329,Queen s Hotel
34,virden,US,71.1,broken clouds,39.5009,-89.7679,Virden Nail Spa
45,rikitea,PF,75.11,overcast clouds,-23.1203,-134.9692,Pension Maro'i
47,vanimo,PG,78.53,overcast clouds,-2.6741,141.3028,Vahmoneh Lodge Vanimo
48,caravelas,BR,75.07,clear sky,-17.7125,-39.2481,Pousada dos Navegantes
51,sao filipe,CV,74.16,overcast clouds,14.8961,-24.4956,Hotel Xaguate
55,medicine hat,CA,75.85,clear sky,50.0501,-110.6683,Sun Dek Motel
57,sibolga,ID,75.42,broken clouds,1.7427,98.7792,Hotel Syariah CN Darussalam
61,marataizes,BR,73.74,overcast clouds,-21.0433,-40.8244,Ed. Barra Shopping
63,arraial do cabo,BR,75.06,broken clouds,-22.9661,-42.0278,Pousada Porto Praia
64,pontalina,BR,77.0,overcast clouds,-17.525,-49.4472,Hotel Entre Rios
73,harper,LR,78.53,moderate rain,4.375,-7.7169,Screensaver
76,pontianak,ID,75.18,light rain,-0.0333,109.3333,Aston Pontianak Hotel & Convention Center
78,dingle,PH,78.84,broken clouds,10.9995,122.6711,SEGAYA PROPERTY
80,machala,EC,75.51,scattered clouds,-3.2667,-79.9667,Hotel Regal
83,ajdabiya,LY,76.78,clear sky,30.7554,20.2263,Almadina Hotel
88,meadow lake,US,76.44,broken clouds,34.8014,-106.5436,JKL Inc. R.V Park and Storage
89,vila velha,BR,76.95,clear sky,-20.3297,-40.2925,Quality Suites Vila Velha
94,bandarban,BD,75.51,broken clouds,22.1965,92.2262,Hotel Plaza
96,avarua,CK,78.85,scattered clouds,-21.2078,-159.775,Paradise Inn
98,komsomolskiy,UZ,71.26,broken clouds,40.4272,71.7189,Ikathouse
108,meulaboh,ID,75.2,overcast clouds,4.1363,96.1285,Kost Pria
113,batouri,CM,72.45,broken clouds,4.4333,14.3667,Hotel Hollywood
117,blytheville,US,75.24,clear sky,35.9273,-89.919,Days Inn by Wyndham Blytheville
126,naze,JP,72.52,light rain,28.3667,129.4833,奄美ポートタワーホテル
134,atuona,PF,79.61,clear sky,-9.8,-139.0333,Villa Enata
149,saint-philippe,RE,71.22,light rain,-21.3585,55.7679,"Chambres d'hôte ""La Trinité"""
155,manta,EC,76.46,overcast clouds,-0.95,-80.7333,Balandra Hotel
171,tabou,CI,78.76,light rain,4.423,-7.3528,hotêl doufoulougou
181,erzin,TR,70.0,clear sky,36.9559,36.2,Artemis Otel
188,surab,PK,71.82,clear sky,28.4914,66.2585,Bismillah Hotel
189,trairi,BR,77.76,clear sky,-3.2778,-39.2689,janelas do mar
190,najran,SA,78.31,clear sky,17.4924,44.1277,محمد هادي ال فطيح
202,buchanan,LR,75.16,moderate rain,5.8808,-10.0467,Kamaneahn Hotel Inc
203,shimoda,JP,72.16,clear sky,34.6667,138.95,Shimoda Tokyu Hotel
210,puerto baquerizo moreno,EC,73.36,clear sky,-0.9,-89.6,Hotel los Algarrobos
213,mount pleasant,US,72.12,overcast clouds,32.7941,-79.8626,Best Western Patriots Point
215,cabinda,AO,77.68,broken clouds,-5.55,12.2,Hotel Maiombe
219,carrollton,US,78.55,overcast clouds,32.9537,-96.8903,Days Inn by Wyndham North Dallas/Farmers Branch
224,pangai,TO,79.52,overcast clouds,-19.8,-174.35,Ha'apai Beach Resort
225,west wendover,US,76.44,clear sky,40.7391,-114.0733,"Motel 6 Wendover, UT"
232,astanajapura,ID,77.76,broken clouds,-6.8017,108.6311,nida nur arofah
235,miri,MY,76.06,overcast clouds,4.4148,114.0089,"Mega Hotel, Miri"
242,chake chake,TZ,74.57,scattered clouds,-5.2459,39.7666,Hotel Archipelago
246,grand gaube,MU,72.37,light rain,-20.0064,57.6608,Veranda Paul et Virginie Hotel & Spa
248,zhezkazgan,KZ,70.74,overcast clouds,47.8043,67.7144,Ul. Ranova 15-1 Kvartiry Posutochno.
253,coruripe,BR,75.18,broken clouds,-10.1256,-36.1756,Pousada e Hotel Litoral Sul
264,sijunjung,ID,71.49,overcast clouds,-0.6876,100.9537,Hotel Bukik Gadang
269,japura,ID,73.51,broken clouds,-0.3167,102.35,Rumah mbah Jamah
273,hargeysa,SO,73.09,clear sky,9.56,44.065,City Center Hotel
284,lamar,US,75.52,clear sky,33.6668,-95.5836,Kings Inn Paris TX
285,yenagoa,NG,77.13,broken clouds,4.9247,6.2642,Aridolf Resort Wellness and Spa
287,itoman,JP,75.97,moderate rain,26.1247,127.6694,Southern Beach Hotel & Resort Okinawa
292,denpasar,ID,78.46,few clouds,-8.65,115.2167,ASTON Denpasar Hotel & Convention Center
299,miles city,US,71.53,few clouds,46.4083,-105.8406,FairBridge Inn & Suites Miles City
306,itarema,BR,78.8,clear sky,-2.9248,-39.9167,"Sea Lounge! Bar, Club & Restaurant"
307,garowe,SO,75.65,scattered clouds,8.4054,48.4845,Curubo Hotel
313,bairiki,KI,78.8,scattered clouds,1.3292,172.9752,Tarawa Boutique Hotel
314,sao joao da barra,BR,74.03,broken clouds,-21.6403,-41.0511,Pousada Porto De Canoas
318,benguela,AO,73.27,clear sky,-12.5763,13.4055,Hotel Praia Morena
322,brookings,US,73.69,clear sky,44.3114,-96.7984,"Holiday Inn Express & Suites Brookings, an IHG Hotel"
327,dunmore town,BS,79.05,broken clouds,25.5,-76.65,Coral Sands Hotel
328,balikpapan,ID,79.79,scattered clouds,-1.2675,116.8289,ibis Balikpapan
329,bengkulu,ID,74.26,broken clouds,-3.8004,102.2655,Grage Hotel Bengkulu
333,bela cruz,BR,75.4,few clouds,-3.0506,-40.1678,Priva’s
336,damietta,EG,75.34,clear sky,31.4165,31.8133,SULIMAN INN
338,cesme,TR,71.31,few clouds,38.3228,26.3064,Ilıca Hotel Spa & Wellness Thermal Resort
340,tevaitoa,PF,79.68,broken clouds,-16.7833,-151.5,Hôtel Raiatea Lodge
342,bida,NG,79.05,overcast clouds,9.0833,6.0167,Royal Suite
345,almendralejo,ES,78.39,overcast clouds,38.6832,-6.4075,Hotel España
348,kismayo,SO,78.26,broken clouds,-0.3582,42.5454,Agan-Hotel
353,marang,MY,79.3,scattered clouds,5.2056,103.2059,DBarakah Homestay
354,barreiras,BR,75.49,scattered clouds,-12.1528,-44.99,Príncipe Hotel
355,kapit,MY,72.68,overcast clouds,2.0167,112.9333,Hotel Meligai Kapit
360,sri aman,MY,72.95,broken clouds,1.2376,111.4621,Seri Simanggang Hotel
365,poum,NC,72.54,broken clouds,-20.2333,164.0167,Gîte kajeon
366,minot,US,73.11,broken clouds,48.2325,-101.2963,Noble Inn
374,biak,ID,75.92,overcast clouds,-0.9131,122.8766,Penginapan Kim
375,payo,ID,72.16,moderate rain,-3.7508,103.6372,Mess keban agung
377,daru,PG,79.45,broken clouds,-9.0763,143.2092,Daru Lodge
380,sinnamary,GF,78.26,broken clouds,5.3833,-52.95,ALETHEIA Appartement Sinnamary
381,san cristobal,VE,76.44,scattered clouds,7.7669,-72.225,Posada Villaven C.A.
385,saint-leu,RE,70.68,clear sky,-21.15,55.2833,La Caz Oceane
391,manmad,IN,79.61,scattered clouds,20.25,74.45,Hotel Shree Leela Int. Manmad
393,kuala terengganu,MY,79.43,scattered clouds,5.3302,103.1408,Hotel Grand Continental Kuala Terengganu (4 Star)
400,kupang,ID,75.78,few clouds,-10.1667,123.5833,Hotel On The Rock by Prasanthi
401,moose factory,CA,75.72,clear sky,51.2585,-80.6094,Moosonee Lilypad
405,norsup,VU,73.17,overcast clouds,-16.0667,167.3833,Nabelchel Bungalows
406,tura,IN,73.47,heavy intensity rain,25.5198,90.2201,Hotel RIKMAN Continental
407,linqiong,CN,71.42,overcast clouds,30.4159,103.4609,Tianlun Tanxianglou Hotel
411,isangel,VU,77.11,broken clouds,-19.55,169.2667,Tanna Lodge
414,korla,CN,73.62,clear sky,41.7597,86.1469,Gulisitan Hotel
418,nurota,UZ,78.89,clear sky,40.5614,65.6886,Guest House Ruslan Nurata & Tours
420,ribas do rio pardo,BR,77.52,broken clouds,-20.4431,-53.7592,Pousada Avenida
424,kiunga,PG,74.53,overcast clouds,-6.1219,141.2906,Airport Lodge Kiunga
431,souillac,MU,72.36,clear sky,-20.5167,57.5167,Shanti Maurice Resort & Spa
433,kasongo,CD,71.69,overcast clouds,-4.45,26.6667,Guest Hôtel
439,timbiqui,CO,79.97,light rain,2.7717,-77.6654,hotel diana
442,bom jesus,BR,78.58,broken clouds,-9.0744,-44.3586,Hotel Brasão & Floricultura Bella Flor
453,ranong,TH,79.54,overcast clouds,9.9658,98.6348,Tinidee Hotel@Ranong
454,boke,GN,77.36,broken clouds,10.9409,-14.2967,Hôtel Rio Nunez - Boké
457,angoche,MZ,73.87,clear sky,-16.2325,39.9086,Guest House HESADA
463,aksu,CN,77.25,overcast clouds,41.1231,80.2644,Pudong Holiday Hotel
470,bend,US,78.22,clear sky,44.0582,-121.3153,Fairfield Inn & Suites by Marriott Bend Downtown
477,praya,CV,73.94,clear sky,14.9215,-23.5087,LT Aparthotel
485,lengshuitan,CN,70.99,overcast clouds,26.4111,111.5956,Jialong Hotel
486,tripoli,LY,70.84,clear sky,32.8752,13.1875,Hotel Al-Safwa
492,oyama,JP,70.03,clear sky,36.3,139.8,Toyoko Inn Oyama-eki Higashi-guchi No.1
493,olinda,BR,73.13,broken clouds,-8.0089,-34.8553,Hotel Albergue de Olinda
497,rosarito,MX,76.62,clear sky,32.3333,-117.0333,Hotel Festival Plaza Rosarito
499,sao jose da coroa grande,BR,75.7,light rain,-8.8978,-35.1478,Crôa Mares Hotel
503,thaton,MM,77.7,overcast clouds,16.9206,97.3714,Tain Pyar Guest House
505,pio ix,BR,74.79,few clouds,-6.8375,-40.5792,Hotel Central
506,nueva loja,EC,78.26,broken clouds,0.0847,-76.8828,Limoncocha Great Hotel
507,nanzhang,CN,71.22,overcast clouds,31.7765,111.8386,Longmenkezhan
519,okitipupa,NG,76.96,overcast clouds,6.5047,4.7839,Coastal Hotel & Suites
523,glendive,US,73.69,scattered clouds,47.1053,-104.7125,Baymont by Wyndham Glendive
525,devils lake,US,73.38,few clouds,48.1128,-98.8651,"Holiday Inn Express Devils Lake, an IHG Hotel"
526,inirida,CO,77.52,overcast clouds,3.8653,-67.9239,Fuente del Guania Hotel de Lujo
528,soubre,CI,74.37,scattered clouds,5.7856,-6.6083,Lynd Hotels Soubre
529,mana,GF,77.61,overcast clouds,5.6592,-53.7767,LE SAMANA
532,kinablangan,PH,75.63,light rain,7.6947,126.5503,Danny Moreno Property
537,gasa,PS,74.91,scattered clouds,31.5,34.4667,رابطة الفنانين الفلسطينيين
540,sambava,MG,72.48,scattered clouds,-14.2667,50.1667,Melrose
544,toamasina,MG,71.38,clear sky,-18.1667,49.3833,Hotel H1
545,bud,US,71.55,clear sky,39.446999999999996,-86.1758,Ted McQuinn Trust
547,san policarpo,PH,79.59,overcast clouds,12.1791,125.5072,JM Lodge
549,bambous virieux,MU,72.21,light rain,-20.3428,57.7575,Casa Tia Villa
554,abadiania,BR,71.37,scattered clouds,-16.2042,-48.7069,Pousada Lírio D'Água
559,quatre cocos,MU,72.09,light rain,-20.2078,57.7625,Emeraude Beach Attitude Hotel
564,sirsi,IN,70.21,overcast clouds,14.6167,74.85,Tripvillas @ Sapna Yatri Nivas
572,wilmington island,US,79.03,broken clouds,32.0036,-80.9737,Breezeway Studio Manor LLC
578,sibu,MY,73.04,broken clouds,2.3,111.8167,RH HOTEL (4 Star)
585,nabire,ID,76.68,overcast clouds,-3.3667,135.4833,Hotel Nusantara Nabire
587,alta floresta,BR,75.36,few clouds,-9.8756,-56.0861,Floresta Amazonica Hotel
589,omboue,GA,76.68,overcast clouds,-1.5746,9.2618,Hotel Olako
591,tarrafal,CV,74.19,broken clouds,15.2833,-23.7667,Hotel Ixola
593,santa helena,BR,76.32,broken clouds,-2.2311,-45.3,Turi Plaza Hotel
601,pemba,MZ,74.1,broken clouds,-12.974,40.5178,Guesthouse Samotina
603,brumado,BR,74.98,scattered clouds,-14.2036,-41.6653,Hotel São Lázaro
604,longyan,CN,72.64,overcast clouds,25.1072,117.0225,Jinjiang Inn Longyan Zhongshan Road Pedestrian Street
615,moorhead,US,75.07,overcast clouds,46.8739,-96.7676,"Courtyard by Marriott Fargo Moorhead, MN"
617,pringsewu,ID,72.77,broken clouds,-5.3582,104.9744,Urban Style by Front One
618,sumbe,AO,74.88,clear sky,-11.2061,13.8437,Hotel Ritz Sumbe
621,padang,ID,75.02,overcast clouds,-0.9492,100.3543,Mercure Padang
623,ipameri,BR,76.44,broken clouds,-17.7219,-48.1597,Real Hotel
626,banda aceh,ID,79.95,broken clouds,5.5577,95.3222,Sulthan Hotel International
629,takoradi,GH,79.72,light rain,4.8845,-1.7554,Raybow International Hotel
631,santa isabel do rio negro,BR,76.78,broken clouds,-0.4139,-65.0192,Hotel GSA
633,mawlaik,MM,78.46,clear sky,23.6333,94.4167,AKZ Guest House
636,grand forks,US,76.93,broken clouds,47.9417,-97.4337,Warrior Inn
643,puerto suarez,BO,75.56,overcast clouds,-18.95,-57.8,Hotel casa real
645,morehead,US,71.94,clear sky,37.2711,-87.1764,CCI Express Inn
656,nishihara,JP,75.25,moderate rain,26.1842,127.7558,Minshuku Agaihama
657,alyangula,AU,74.34,overcast clouds,-13.8483,136.4192,Groote Eylandt Lodge
662,zemio,CF,72.88,few clouds,5.0314,25.1361,OCHA Office
671,sao felix do xingu,BR,76.5,scattered clouds,-6.6447,-51.995,Rio Xingu Camping
673,kirando,TZ,71.69,clear sky,-7.4167,30.6,Lakeshore Lodge
675,belmonte,BR,79.3,clear sky,-15.8631,-38.8828,Pousada Monte Carmelo O Pão
